,level_0,index,무인교통단속카메라관리번호,시도명,시군구명,도로종류,도로노선번호,도로노선명,도로노선방향,소재지도로명주소,소재지지번주소,위도,경도,설치장소,단속구분,제한속도,단속구간위치구분,과속단속구간길이,보호구역구분,설치연도,관리기관명,관리기관전화번호,데이터기준일자,제공기관코드,제공기관명,지역,보호구역
0,47,2275,주차58,서울특별시,강동구,시도,0,상일로,3.0,서울특별시 강동구 상일로11길 110,서울특별시 강동구 상일동 520-5,37.553392,127.165104,고현초교 앞,4,0,,200.0,2.0,2020.0,서울특별시 강동구청,02-3425-6317,2021-08-24,3240000,서울특별시 강동구,서울,어린이
1,48,2276,주차59,서울특별시,강동구,시도,0,양재대로,3.0,서울특별시 강동구 양재대로156길 11,서울특별시 강동구 고덕동 487-15,37.556636,127.144803,명덕초교 앞,4,0,,200.0,2.0,2020.0,서울특별시 강동구청,02-3425-6317,2021-08-24,3240000,서울특별시 강동구,서울,어린이
2,50,2278,주차61,서울특별시,강동구,시도,0,구천면로,1.0,서울특별시 강동구 구천면로93길 20,서울특별시 강동구 상일동 125,37.55154262,127.168561,고일초교 앞,4,0,,200.0,2.0,2020.0,서울특별시 강동구청,02-3425-6317,2021-08-24,3240000,서울특별시 강동구,서울,어린이
3,51,2279,주차62,서울특별시,강동구,시도,0,고덕로,1.0,서울특별시 강동구 고덕로46길 53,서울특별시 강동구 명일동 296-1,37.552208,127.146122,고명초교 앞,4,0,,200.0,2.0,2020.0,서울특별시 강동구청,02-3425-6317,2021-08-24,3240000,서울특별시 강동구,서울,어린이
4,52,2280,주차63,서울특별시,강동구,시도,0,아리수로,3.0,서울특별시 강동구 아리수로98길 24,서울특별시 강동구 강일동 685,37.564392,127.178237,강일초교 앞,4,0,,200.0,2.0,2020.0,서울특별시 강동구청,02-3425-6317,2021-08-24,3240000,서울특별시 강동구,서울,어린이
5,53,2281,주차64,서울특별시,강동구,시도,0,명일로,1.0,서울특별시 강동구 명일로 262,서울특별시 강동구 길동 82-4,37.54202100000001,127.147479,강동에코포레,4,0,,200.0,2.0,2020.0,서울특별시 강동구청,02-3425-6317,2021-08-24,3240000,서울특별시 강동구,서울,어린이
6,55,2283,주차66,서울특별시,강동구,시도,0,고덕로,3.0,서울특별시 강동구 고덕로97길 80,서울특별시 강동구 강일동 694,37.5618696246,127.1802670557,강솔초교 앞,4,0,,200.0,2.0,2020.0,서울특별시 강동구청,02-3425-6317,2021-08-24,3240000,서울특별시 강동구,서울,어린이
7,60,2476,주정차단속-095,서울특별시,마포구,구도,48,월드컵북로,3.0,서울특별시 마포구 월드컵북로 502,,37.58504618,126.879871,하늘초등학교 주변,4,0,,,2.0,2007.0,마포구청,02-3153-9655,2020-10-29,3130000,서울특별시 마포구,서울,어린이
8,61,2477,주정차단속-096,서울특별시,마포구,구도,212,월드컵로42길,3.0,서울특별시 마포구 월드컵로42길13,,37.5787582,126.88080490000002,서부면허시험장 앞,4,0,,,2.0,2010.0,마포구청,02-3153-9655,2020-10-29,3130000,서울특별시 마포구,서울,어린이
9,63,2479,주정차단속-098,서울특별시,마포구,구도,없음,대흥로20길,3.0,서울특별시 마포구 대흥로20길 28,,37.5499060881,126.946079,마포자이A3차주변,4,0,,,2.0,2019.0,마포구청,02-3153-9655,2020-10-29,3130000,서울특별시 마포구,서울,어린이
10,64,2480,주정차단속-099,서울특별시,마포구,구도,없음,백범로17길,3.0,서울특별시 마포구 백범로17길 38,,37.548775,126.944537,용강초등학교 후문 주변,4,0,,,2.0,2019.0,마포구청,02-3153-9655,2020-10-29,3130000,서울특별시 마포구,서울,어린이
11,66,2482,주정차단속-101,서울특별시,마포구,구도,없음,독막로,3.0,서울특별시 마포구 독막로 210,,37.547256,126.936958,성원아파트 주변,4,0,,,2.0,2019.0,마포구청,02-3153-9655,2020-10-29,3130000,서울특별시 마포구,서울,어린이
12,82,2560,주차46,서울특별시,강동구,시도,0,진황도로,1.0,서울특별시 강동구 진황도로 160,서울특별시 강동구 둔촌동 452-2,37.5319264,127.141845,애지어린이집 앞,4,0,,200.0,2.0,2012.0,서울특별시 강동구청,02-3425-6317,2021-08-24,3240000,서울특별시 강동구,서울,어린이
13,83,2561,주차47,서울특별시,강동구,시도,0,구천면로,1.0,서울특별시 강동구 구천면로 271,서울특별시 강동구 천호동 298-4,37.54434970000001,127.1323481,천일초교 사거리,4,0,,200.0,2.0,2014.0,서울특별시 강동구청,02-3425-6317,2021-08-24,3240000,서울특별시 강동구,서울,어린이
14,86,2564,주차50,서울특별시,강동구,구도,0,상일로10길,3.0,서울특별시 강동구 상일로10길 36,서울특별시 강동구 상일동 501,37.5508023,127.1740049,고덕리엔파크3단지 서문,4,0,,200.0,2.0,2016.0,서울특별시 강동구청,02-3425-6317,2021-08-24,3240000,서울특별시 강동구,서울,어린이
15,87,2565,주차51,서울특별시,강동구,시도,0,진황도로,2.0,서울특별시 강동구 진황도로 190,서울특별시 강동구 둔촌동 75-6,37.52925982,127.142983,보훈병원 사거리,4,0,,200.0,2.0,2017.0,서울특별시 강동구청,02-3425-6317,2021-08-24,3240000,서울특별시 강동구,서울,어린이
16,99,4183,주차20,서울특별시,강동구,시도,0,천중로,2.0,서울특별시 강동구 천중로 253,서울특별시 강동구 길동 477,37.540308,127.1485756,신동아아파트상가,4,0,,200.0,2.0,2008.0,서울특별시 강동구청,02-3425-6317,2021-08-24,3240000,서울특별시 강동구,서울,어린이
17,103,4187,주차24,서울특별시,강동구,시도,0,성안로,2.0,서울특별시 강동구 성안로 201,서울특별시 강동구 천호동 122-1,37.540864,127.136896,천동초교 사거리,4,0,,200.0,2.0,2008.0,서울특별시 강동구청,02-3425-6317,2021-08-24,3240000,서울특별시 강동구,서울,어린이
18,124,4234,주차12,서울특별시,강동구,시도,0,양재대로,3.0,서울특별시 강동구 양재대로 1315,서울특별시 강동구 성내동 440-1,37.5238379,127.1342786,신한은행 둔촌동지점 앞,4,0,,200.0,2.0,2006.0,서울특별시 강동구청,02-3425-6317,2021-08-24,3240000,서울특별시 강동구,서울,어린이
19,126,4517,F9336,서울특별시,도봉구,특별시도,,노해로,2.0,서울특별시 도봉구 노해로,서울특별시 도봉구 쌍문동 315-8,37.650056,127.02798,숭미초등학교 앞,2,30,,,2.0,2016.0,서울지방경찰청,02-700-5031,2020-05-31,1320000,경찰청,서울,어린이
20,127,4518,F9337,서울특별시,동대문구,특별시도,,국회대로,1.0,서울특별시 동대문 사가정로,서울특별시 동대문구 전농동 307-7,37.574515000000005,127.05346599999999,전농초등학교,2,40,,,2.0,2016.0,서울지방경찰청,02-700-5031,2020-05-31,1320000,경찰청,서울,어린이
21,146,4543,F9093,서울특별시,관악구,특별시도,,난곡로,1.0,서울특별시 관악구 난곡로,서울특별시 관악구 신림동 637-15,37.470062,126.92013200000001,우림시장앞,2,30,,,2.0,2016.0,서울지방경찰청,02-700-5031,2020-05-31,1320000,경찰청,서울,어린이
22,156,4553,F9169,서울특별시,동작구,특별시도,,장승배기로,1.0,서울특별시 동작구 장승배기로 160,,37.511538,126.94029499999999,노량진초교 앞 : 스쿨존,2,40,,,2.0,2016.0,서울지방경찰청,02-700-5031,2020-05-31,1320000,경찰청,서울,어린이
23,164,4561,F9177,서울특별시,서초구,특별시도,,신반포로,2.0,서울특별시 서초구 신반포로 15길,,37.505288,126.993806,신반포쇼핑센터 앞 : 스쿨존,2,30,,,2.0,2016.0,서울지방경찰청,02-700-5031,2020-05-31,1320000,경찰청,서울,어린이
24,173,6998,99,서울특별시,은평구,구도,,증산동,3.0,서울특별시 은평구 증산동 223-13,서울특별시 은평구 수색로195,37.58426408,126.9044678,DMC 주변,4,30,,,2.0,,서울특별시 은평구청,02-351-7804,2021-09-01,3110000,서울특별시 은평구,서울,어린이
25,176,7001,102,서울특별시,은평구,구도,,진관1로,3.0,서울특별시 은평구 진관1로 55,서울특별시 은평구 진광동 106,37.63199016,126.925787,진관어린이집 부근,4,30,,,2.0,,서울특별시 은평구청,02-351-7804,2021-09-01,3110000,서울특별시 은평구,서울,어린이
26,177,7002,103,서울특별시,은평구,구도,,대조동,3.0,서울특별시 은평구 대조동 255-13,서울특별시 은평구 대조동 255-13,37.61209401,126.9200674,대조초등학교 부근,4,30,,,2.0,,서울특별시 은평구청,02-351-7804,2021-09-01,3110000,서울특별시 은평구,서울,어린이
27,178,7003,104,서울특별시,은평구,구도,,녹번로,3.0,서울특별시 은평구 녹번로 12,서울특별시 은평구 녹번동 83-8,37.60326588,126.927312,녹번초등학교 주변,4,30,,,2.0,,서울특별시 은평구청,02-351-7804,2021-09-01,3110000,서울특별시 은평구,서울,어린이
28,179,7004,105,서울특별시,은평구,구도,,은평터널로,3.0,서울특별시 은평구 은평터널로 150,서울특별시 은평구 신사동 194,37.59218566,126.9067785,서신초등학교 후문,4,30,,,2.0,,서울특별시 은평구청,02-351-7804,2021-09-01,3110000,서울특별시 은평구,서울,어린이
29,180,7005,106,서울특별시,은평구,구도,,갈현로,3.0,서울특별시 은평구 갈현로29길 27,서울특별시 은평구 갈현동 240-1,37.61960504,126.9140179,선일초등학교 정문,4,30,,,2.0,,서울특별시 은평구청,02-351-7804,2021-09-01,3110000,서울특별시 은평구,서울,어린이
30,181,7006,107,서울특별시,은평구,구도,,불광로,3.0,서울특별시 은평구 불광로 177,서울특별시 은평구 불광2동 194-1,37.62238207,126.9310756,불광중학교(불광어린이집) 주변,4,30,,,2.0,,서울특별시 은평구청,02-351-7804,2021-09-01,3110000,서울특별시 은평구,서울,어린이
31,182,7007,108,서울특별시,은평구,구도,,연서로3길,3.0,서울특별시 은평구 연서로3길 40,서울특별시 은평구 역촌동 68-35,37.60292818,126.91125759999998,예본어린이집 부근,4,30,,,2.0,,서울특별시 은평구청,02-351-7804,2021-09-01,3110000,서울특별시 은평구,서울,어린이
32,183,7008,109,서울특별시,은평구,구도,,연서로,3.0,서울특별시 은평구 연서로27길 27,서울특별시 은평구 갈현동501-10,37.61861937,126.91644840000002,갈현초등학교정문앞,4,30,,,2.0,,서울특별시 은평구청,02-351-7804,2021-09-01,3110000,서울특별시 은평구,서울,어린이
33,184,7009,110,서울특별시,은평구,구도,,서오릉로17길,3.0,서울특별시 은평구 서오릉로17길 15-19,서울특별시 은평구 구산동 147-7,37.61299788,126.9089174,구산초등학교 부근,4,30,,,2.0,,서울특별시 은평구청,02-351-7804,2021-09-01,3110000,서울특별시 은평구,서울,어린이
34,186,7011,112,서울특별시,은평구,구도,,불광동,3.0,서울특별시 은평구 불광동 70-1,서울특별시 은평구 불광동 70-1,37.62604567,126.9289395,연신초등학교후문앞,4,30,,,2.0,,서울특별시 은평구청,02-351-7804,2021-09-01,3110000,서울특별시 은평구,서울,어린이
35,187,7012,113,서울특별시,은평구,구도,,진관1로,3.0,서울특별시 은평구 진관1로 21-10,서울특별시 은평구 진관동 102,37.63300437,126.9217255,은진초교 부근,4,30,,,2.0,,서울특별시 은평구청,02-351-7804,2021-09-01,3110000,서울특별시 은평구,서울,어린이
36,188,7013,114,서울특별시,은평구,구도,,서오릉로,3.0,서울특별시 은평구 서오릉로15길 7,서울특별시 은평구 구산동 209-1,37.61363087,126.90987520000002,구산초등학교 정문,4,30,,,2.0,,서울특별시 은평구청,02-351-7804,2021-09-01,3110000,서울특별시 은평구,서울,어린이
37,190,7015,116,서울특별시,은평구,구도,,진관동,3.0,서울특별시 은평구 진관동 8,서울특별시 은평구 진관4로78-16,37.64462051,126.9300865,진관초 정문앞 주변,4,30,,,2.0,,서울특별시 은평구청,02-351-7804,2021-09-01,3110000,서울특별시 은평구,서울,어린이
38,191,7016,117,서울특별시,은평구,구도,805,연서로3나길,3.0,서울특별시 은평구 연서로3나길 2,서울특별시 은평구 역촌동 66-32,37.602239,126.9132315,역촌초교 북문(주변),4,30,,,2.0,,서울특별시 은평구청,02-351-7804,2021-09-01,3110000,서울특별시 은평구,서울,어린이
39,199,7031,79,서울특별시,은평구,구도,없음,가좌로,3.0,서울특별시 은평구 가좌로 276,서울특별시 은평구 신사동 35-34,37.5933429,126.9133437,신사초교 주변,4,50,,,2.0,,서울특별시 은평구청,02-351-7804,2021-09-01,3110000,서울특별시 은평구,서울,어린이
40,200,7032,80,서울특별시,은평구,구도,1123,연서로18가길,3.0,서울특별시 은평구 연서로18가길 1,서울특별시 은평구 대조동 47-1,37.6121646,126.919998,대조초등학교,4,30,,,2.0,,서울특별시 은평구청,02-351-7804,2021-09-01,3110000,서울특별시 은평구,서울,어린이
41,201,7033,81,서울특별시,은평구,구도,955,통일로69길,3.0,서울특별시 은평구 통일로69길 11,서울특별시 은평구 대조동 3-55,37.611389,126.927321,대은초등학교,4,30,,,2.0,,서울특별시 은평구청,02-351-7804,2021-09-01,3110000,서울특별시 은평구,서울,어린이
42,202,7034,82,서울특별시,은평구,구도,810,백련산로2길,3.0,서울특별시 은평구 백련산로2길 35,서울특별시 은평구 응암동 759-2,37.59073239999999,126.924523,연은초등학교,4,30,,,2.0,,서울특별시 은평구청,02-351-7804,2021-09-01,3110000,서울특별시 은평구,서울,어린이
43,203,7035,83,서울특별시,은평구,구도,,연서로,3.0,서울특별시 은평구 연서로 34길,서울특별시 은평구 불광동 346-153,37.6211896,126.9290475,연천초교 부근,4,30,,,2.0,,서울특별시 은평구청,02-351-7804,2021-09-01,3110000,서울특별시 은평구,서울,어린이
44,204,7036,84,서울특별시,은평구,구도,,불광로,3.0,서울특별시 은평구 불광로 14길,서울특별시 은평구 불광동 640,37.61954385,126.93324309999998,수리초교 부근,4,30,,,2.0,,서울특별시 은평구청,02-351-7804,2021-09-01,3110000,서울특별시 은평구,서울,어린이
45,205,7037,85,서울특별시,은평구,구도,,갈현로,3.0,서울특별시 은평구 갈현로 15길 42,서울특별시 은평구 구산동 167-11,37.60917058,126.9071921,구현초교 부근,4,30,,,2.0,,서울특별시 은평구청,02-351-7804,2021-09-01,3110000,서울특별시 은평구,서울,어린이
46,206,7038,86,서울특별시,은평구,구도,,연서로,3.0,서울특별시 은평구 연서로 55,서울특별시 은평구 역촌동 63-1,37.60406763,126.914794,역촌초교부근,4,30,,,2.0,,서울특별시 은평구청,02-351-7804,2021-09-01,3110000,서울특별시 은평구,서울,어린이
47,207,7039,87,서울특별시,은평구,구도,없음,가좌로,3.0,서울특별시 은평구 가좌로 361,서울특별시 은평구 신사동 230-11,37.597677,126.9046048862,상신초 정문,4,30,,,2.0,,서울특별시 은평구청,02-351-7804,2021-09-01,3110000,서울특별시 은평구,서울,어린이
48,208,7040,88,서울특별시,은평구,구도,,통일로 660,3.0,서울특별시 은평구통일로 660,서울특별시 은평구 녹번동 281,37.60349147,126.9321581,어울초등학교,4,30,,,2.0,,서울특별시 은평구청,02-351-7804,2021-09-01,3110000,서울특별시 은평구,서울,어린이
49,209,7041,89,서울특별시,은평구,구도,,진관동,3.0,서울특별시 은평구 진관동 38-25,서울특별시 은평구 진관동 38-25,37.61104863,126.9084026,은빛초등학교,4,30,,,2.0,,서울특별시 은평구청,02-351-7804,2021-09-01,3110000,서울특별시 은평구,서울,어린이
50,210,7042,90,서울특별시,은평구,구도,,구산동,3.0,서울특별시 은평구 구산동 159-2,서울특별시 은평구 구산동 159-2,37.61105112,126.9084057,구산초등학교,4,30,,,2.0,,서울특별시 은평구청,02-351-7804,2021-09-01,3110000,서울특별시 은평구,서울,어린이
51,211,7043,91,서울특별시,은평구,구도,,갈현로,3.0,서울특별시 은평구 갈현로9길 18,서울특별시 은평구 역촌동 71-12,37.60507778,126.9085136,은평대영학교,4,30,,,2.0,,서울특별시 은평구청,02-351-7804,2021-09-01,3110000,서울특별시 은평구,서울,어린이
52,212,7044,92,서울특별시,은평구,구도,,가좌로6길,3.0,서울특별시 은평구 가좌로6길 21-1,서울특별시 은평구 응암동 285-1,37.58798759,126.9205332,응암초등학교 후문,4,30,,,2.0,,서울특별시 은평구청,02-351-7804,2021-09-01,3110000,서울특별시 은평구,서울,어린이
53,213,7045,93,서울특별시,은평구,구도,,연서로35길,3.0,서울특별시 은평구 연서로35길 38,서울특별시 은평구 불광동 442-48,37.62408406,126.9251926,연광초등학교 정문,4,30,,,2.0,,서울특별시 은평구청,02-351-7804,2021-09-01,3110000,서울특별시 은평구,서울,어린이
54,214,7046,94,서울특별시,은평구,구도,,연서로20길,3.0,서울특별시 은평구 연서로20길 20-8,서울특별시 은평구 대조동 214-26,37.61357878,126.9202282,대조초등학교 후문,4,30,,,2.0,,서울특별시 은평구청,02-351-7804,2021-09-01,3110000,서울특별시 은평구,서울,어린이
55,215,7047,95,서울특별시,은평구,구도,,통일로71길,3.0,서울특별시 은평구 통일로71길 24-30,서울특별시 은평구 대조동 84-92,37.61246338,126.9261156,대은초등학교 후문,4,30,,,2.0,,서울특별시 은평구청,02-351-7804,2021-09-01,3110000,서울특별시 은평구,서울,어린이
56,216,7048,96,서울특별시,은평구,구도,,은평로4길,3.0,서울특별시 은평구 은평로4길 20-1,서울특별시 은평구 응암동 113-13,37.59759438,126.9168926,은명초등학교 후문,4,30,,,2.0,,서울특별시 은평구청,02-351-7804,2021-09-01,3110000,서울특별시 은평구,서울,어린이
57,217,7049,97,서울특별시,은평구,구도,,녹번로,3.0,서울특별시 은평구 녹번로 12,서울특별시 은평구 녹번동83-8,37.60323188,126.9272906,녹번초등학교 정문,4,30,,,2.0,,서울특별시 은평구청,02-351-7804,2021-09-01,3110000,서울특별시 은평구,서울,어린이
58,218,7050,98,서울특별시,은평구,구도,,통일로78길,3.0,서울특별시 은평구 통일로78길 12-4,서울특별시 은평구 불광동 301-92,37.61789898,126.9238542,성모자애 어린이집,4,30,,,2.0,,서울특별시 은평구청,02-351-7804,2021-09-01,3110000,서울특별시 은평구,서울,어린이
59,219,7051,63,서울특별시,은평구,구도,1243번,연서로41길,3.0,서울특별시 은평구 연서로41길 14,서울특별시 은평구 불광동 81-1,37.62612523,126.9276676,연신초교(주변),4,30,,,2.0,,서울특별시 은평구청,02-351-7804,2021-09-01,3110000,서울특별시 은평구,서울,어린이
60,220,7052,64,서울특별시,은평구,구도,1072번,연서로27길,3.0,서울특별시 은평구 연서로27길 12,,37.618033,126.91818700000002,중앙성서교회(주변),4,30,,,2.0,,서울특별시 은평구청,02-351-7804,2021-09-01,3110000,서울특별시 은평구,서울,어린이
61,221,7053,65,서울특별시,은평구,구도,125번,갈현로,3.0,서울특별시 은평구 갈현로 247,,37.61913445,126.9154328,선일초교(주변),4,30,,,2.0,,서울특별시 은평구청,02-351-7804,2021-09-01,3110000,서울특별시 은평구,서울,어린이
62,222,7054,66,서울특별시,은평구,구도,없음,은평로,3.0,서울특별시 은평구 은평로 237,,37.60104548,126.9341043,은평초교(주변),4,30,,,2.0,,서울특별시 은평구청,02-351-7804,2021-09-01,3110000,서울특별시 은평구,서울,어린이
63,223,7055,67,서울특별시,은평구,구도,165번,불광로,3.0,서울특별시 은평구 불광로 60,,37.612209,126.9321304,불광초교(주변),4,30,,,2.0,,서울특별시 은평구청,02-351-7804,2021-09-01,3110000,서울특별시 은평구,서울,어린이
64,224,7056,68,서울특별시,은평구,구도,950번,연서로13길,3.0,서울특별시 은평구 연서로13길 19-1,,37.60997373,126.9139878,예일초교(주변),4,30,,,2.0,,서울특별시 은평구청,02-351-7804,2021-09-01,3110000,서울특별시 은평구,서울,어린이
65,226,7058,70,서울특별시,은평구,구도,1078번,연서로29길,3.0,서울특별시 은평구 연서로29길 25,,37.61950535,126.9175505,갈현초교 삼거리(주변),4,30,,,2.0,,서울특별시 은평구청,02-351-7804,2021-09-01,3110000,서울특별시 은평구,서울,어린이
66,238,7352,61,서울특별시,은평구,구도,651번,은평로8길,3.0,서울특별시 은평구 은평로8길 42,,37.59694549,126.9188663,은명초교(주변),4,30,,,2.0,,서울특별시 은평구청,02-351-7804,2021-09-01,3110000,서울특별시 은평구,서울,어린이
67,239,7353,62,서울특별시,은평구,구도,504번,증산서길,3.0,서울특별시 은평구 증산서길 53,,37.5816542,126.9048558,증산초교(주변),4,30,,,2.0,,서울특별시 은평구청,02-351-7804,2021-09-01,3110000,서울특별시 은평구,서울,어린이
68,249,7363,34,서울특별시,은평구,구도,508,은평터널로,3.0,서울특별시 은평구 은평터널로 149,서울특별시 은평구 신사동 192-1,37.59231434,126.90660859999998,서신초교 부근,4,30,,,2.0,,서울특별시 은평구청,02-351-7804,2021-09-01,3110000,서울특별시 은평구,서울,어린이
69,604,10718,302,서울특별시,종로구,구도,29번,대학로,3.0,서울특별시 종로구 대학로 64,서울특별시 종로구 이화동 149,37.5775997032,127.0042955217,서울사대부설초교 주변,4,50,,,2.0,2003.0,서울특별시 종로구청,02-2148-3372,2021-12-01,3000000,서울특별시 종로구,서울,어린이
70,609,10723,307,서울특별시,종로구,구도,28-J29번,혜화로,3.0,서울특별시 종로구 혜화로 50,서울특별시 종로구 혜화동 9-11,37.589879,126.99933706540001,올림픽기념국민생활관 주변,4,30,,,2.0,2012.0,서울특별시 종로구청,02-2148-3372,2021-12-01,3000000,서울특별시 종로구,서울,어린이
71,615,10729,313,서울특별시,종로구,구도,28-J29번,혜화로,3.0,서울특별시 종로구 혜화로 1,서울특별시 종로구 혜화동 111-3,37.585886758200004,127.0007091,혜화동우체국 주변,4,50,,,2.0,2020.0,서울특별시 종로구청,02-2148-3372,2021-12-01,3000000,서울특별시 종로구,서울,어린이
72,616,10730,314,서울특별시,종로구,구도,28-J29번,혜화로,3.0,서울특별시 종로구 혜화로 12,서울특별시 종로구 혜화동 74-30,37.58685452,127.0005639532,헤화동주민센터 주변,4,30,,,2.0,2020.0,서울특별시 종로구청,02-2148-3372,2021-12-01,3000000,서울특별시 종로구,서울,어린이
73,617,10731,315,서울특별시,종로구,구도,28-J29번,혜화로,3.0,서울특별시 종로구 혜화로 32,서울특별시 종로구 혜화동 13-1,37.5886344276,127.0002536208,혜화초교 정문 주변,4,30,,,2.0,2020.0,서울특별시 종로구청,02-2148-3372,2021-12-01,3000000,서울특별시 종로구,서울,어린이
74,618,10732,317,서울특별시,종로구,시도,22-12번,통일로12길,3.0,서울특별시 종로구 통일로12길 23,서울특별시 종로구 무악동 46-82,37.574215527199996,126.95997219979999,독립문초교 정문 주변,4,30,,,2.0,2020.0,서울특별시 종로구청,02-2148-3372,2021-12-01,3000000,서울특별시 종로구,서울,어린이
75,620,10734,67,서울특별시,종로구,구도,C1-J13번,북촌로,3.0,서울특별시 종로구 북촌로 53,서울특별시 종로구 가회동30-2,37.5817789378,126.9845971169,가회동성당 주변,4,30,,,2.0,2019.0,서울특별시 종로구청,02-2148-3372,2021-12-01,3000000,서울특별시 종로구,서울,어린이
76,621,10735,68,서울특별시,종로구,구도,C1-J13-4번,북촌로4길,3.0,서울특별시 종로구 북촌로4길 7,서울특별시 종로구 가회동 210,37.580029913000004,126.9851777945,재동초교 주변,4,30,,,2.0,2007.0,서울특별시 종로구청,02-2148-3372,2021-12-01,3000000,서울특별시 종로구,서울,어린이
77,631,10745,78,서울특별시,종로구,시도,28-J22번,김상옥로,3.0,서울특별시 종로구 김상옥로 71,서울특별시 종로구 충신동 179-10,37.573718071,127.00565982370001,충신시장입구 교차로(김상옥로) 주변,4,30,,,2.0,2005.0,서울특별시 종로구청,02-2148-3372,2021-12-01,3000000,서울특별시 종로구,서울,어린이
78,632,10746,79,서울특별시,종로구,시도,28-J22번,김상옥로,3.0,서울특별시 종로구 김상옥로 54,서울특별시 종로구 효제동 273,37.5732828784,127.003683,효제초교 후문 주변,4,30,,,2.0,2005.0,서울특별시 종로구청,02-2148-3372,2021-12-01,3000000,서울특별시 종로구,서울,어린이
79,645,10759,92,서울특별시,종로구,구도,5111번,지봉로,3.0,서울특별시 종로구 지봉로 70,서울특별시 종로구 숭인동 61-66,37.5762183123,127.01578652059999,창신초교 주변,4,30,,,2.0,2007.0,서울특별시 종로구청,02-2148-3372,2021-12-01,3000000,서울특별시 종로구,서울,어린이
80,646,10760,41,서울특별시,종로구,시도,27번,삼일대로,3.0,서울특별시 종로구 삼일대로 444-1,서울특별시 종로구 낙원동 1,37.574222745,126.9876165192,(어린이 39) 교동초교 정문 주변,4,30,,,2.0,2018.0,서울특별시 종로구청,02-2148-3372,2021-12-01,3000000,서울특별시 종로구,서울,어린이
81,648,10762,43,서울특별시,종로구,시도,51번,새문안로,3.0,서울특별시 종로구 새문안로 92,서울특별시 종로구 신문로1가 163,37.5696996246,126.974907969,광화문오피시아빌딩 주변,4,30,,,2.0,2012.0,서울특별시 종로구청,02-2148-3372,2021-12-01,3000000,서울특별시 종로구,서울,어린이
82,649,10763,44,서울특별시,종로구,시도,27번,삼일대로,3.0,서울특별시 종로구 삼일대로 445,서울특별시 종로구 경운동 63-10,37.574267,126.9869284791,교동초교 주변,4,30,,,2.0,2005.0,서울특별시 종로구청,02-2148-3372,2021-12-01,3000000,서울특별시 종로구,서울,어린이
83,650,10764,45,서울특별시,종로구,시도,27번,삼일대로,3.0,서울특별시 종로구 삼일대로 457,서울특별시 종로구 경운동 88,37.5752878301,126.9861674528,수운회관 주변,4,30,,,2.0,2005.0,서울특별시 종로구청,02-2148-3372,2021-12-01,3000000,서울특별시 종로구,서울,어린이
84,656,10770,51,서울특별시,종로구,시도,C1번,사직로,3.0,서울특별시 종로구 사직로 95,서울특별시 종로구 필운동 142,37.5763264794,126.969346,사직동주민센터 주변,4,50,,,2.0,2005.0,서울특별시 종로구청,02-2148-3372,2021-12-01,3000000,서울특별시 종로구,서울,어린이
85,658,10772,53,서울특별시,종로구,구도,C1-8번,사직로8길,3.0,서울특별시 종로구 사직로8길 4,서울특별시 종로구 사직동 9,37.574654032,126.96857523530001,광화문풍림스페이스본1단지 주변,4,30,,,2.0,2010.0,서울특별시 종로구청,02-2148-3372,2021-12-01,3000000,서울특별시 종로구,서울,어린이
86,665,10779,60,서울특별시,종로구,구도,23번,자하문로,3.0,서울특별시 종로구 자하문로 69,서울특별시 종로구 옥인동 18,37.5822216685,126.9703429461,옥인교회(통인시장~신교동R) 주변,4,40,,,2.0,2005.0,서울특별시 종로구청,02-2148-3372,2021-12-01,3000000,서울특별시 종로구,서울,어린이
87,666,10780,61,서울특별시,종로구,시도,23번,자하문로,3.0,서울특별시 종로구 자하문로 119,서울특별시 종로구 청운동 50-31,37.586539,126.9695943007,청운초교 주변,4,40,,,2.0,2005.0,서울특별시 종로구청,02-2148-3372,2021-12-01,3000000,서울특별시 종로구,서울,어린이
88,667,10781,62,서울특별시,종로구,시도,23번,자하문로,3.0,서울특별시 종로구 자하문로 273,서울특별시 종로구 부암동 185-4,37.59803400000001,126.9619286636,우리은행 자하문지점 주변,4,50,,,2.0,2005.0,서울특별시 종로구청,02-2148-3372,2021-12-01,3000000,서울특별시 종로구,서울,어린이
89,669,10783,64,서울특별시,종로구,시도,4901번,평창문화로,3.0,서울특별시 종로구 평창문화로 75,서울특별시 종로구 평창동 158-1,37.60686264,126.9690062011,글로리아타운 주변,4,20,,,2.0,2017.0,서울특별시 종로구청,02-2148-3372,2021-12-01,3000000,서울특별시 종로구,서울,어린이
90,672,10787,16,서울특별시,종로구,시도,C1-J13-6번,북촌로6길,3.0,서울특별시 종로구 북촌로6길 1,서울특별시 종로구 가회동 208-7,37.5801665948,126.985109,(어린이 12) 가회동주민센터 주변,4,30,,,2.0,2019.0,서울특별시 종로구청,02-2148-3372,2021-12-01,3000000,서울특별시 종로구,서울,어린이
91,674,10789,18,서울특별시,종로구,시도,23-10번,자하문로10길,3.0,서울특별시 종로구 자하문로10길 8,서울특별시 종로구 통의동 91-43,37.579399,126.97198641690001,(어린이 14) 정부청사어린이집 주변,4,30,,,2.0,2014.0,서울특별시 종로구청,02-2148-3372,2021-12-01,3000000,서울특별시 종로구,서울,어린이
92,675,10790,19,서울특별시,종로구,시도,23-28번,자하문로28길,3.0,서울특별시 종로구 자하문로28길 8,서울특별시 종로구 궁정동 4-11,37.584796625100005,126.9711012,(어린이 15) 무궁화어린이집 주변,4,30,,,2.0,2014.0,서울특별시 종로구청,02-2148-3372,2021-12-01,3000000,서울특별시 종로구,서울,어린이
93,676,10791,20,서울특별시,종로구,시도,23번,자하문로,3.0,서울특별시 종로구 자하문로 306,서울특별시 종로구 홍지동 99-3,37.59970300000001,126.95906399999998,(어린이 17) 세검정유치원 주변,4,50,,,2.0,2014.0,서울특별시 종로구청,02-2148-3372,2021-12-01,3000000,서울특별시 종로구,서울,어린이
94,677,10792,21,서울특별시,종로구,시도,23-J9-2번,홍지문2길,3.0,서울특별시 종로구 홍지문2길 1,서울특별시 종로구 홍지동 56,37.6004405635,126.95671491819999,(어린이 18) 상명부속어린이집 주변,4,30,,,2.0,2014.0,서울특별시 종로구청,02-2148-3372,2021-12-01,3000000,서울특별시 종로구,서울,어린이
95,678,10793,22,서울특별시,종로구,구도,C1-J1번,필운대로,3.0,서울특별시 종로구 필운대로 103,서울특별시 종로구 신교동 1-1,37.5856448583,126.9687749759,(어린이 19) 서울농학교 주변,4,30,,,2.0,2014.0,서울특별시 종로구청,02-2148-3372,2021-12-01,3000000,서울특별시 종로구,서울,어린이
96,679,10794,23,서울특별시,종로구,시도,C1-J1-1번,인왕산로1길,3.0,서울특별시 종로구 인왕산로1길 21,서울특별시 종로구 사직동 284-1,37.574209816,126.96466101889999,(어린이 20) 수도사랑의학교 주변,4,30,,,2.0,2014.0,서울특별시 종로구청,02-2148-3372,2021-12-01,3000000,서울특별시 종로구,서울,어린이
97,680,10795,24,서울특별시,종로구,시도,C1-J13-4번,북촌로4길,3.0,서울특별시 종로구 북촌로4길 27,서울특별시 종로구 계동 115-1,37.579457503200004,126.986666,(어린이 21) 재동초교(미니스톱) 주변,4,30,,,2.0,2014.0,서울특별시 종로구청,02-2148-3372,2021-12-01,3000000,서울특별시 종로구,서울,어린이
98,681,10796,25,서울특별시,종로구,구도,23-J9-7번,세검정로7길,3.0,서울특별시 종로구 세검정로7길 19,서울특별시 종로구 신영동 218-5,37.6026226862,126.9606130114,(어린이 22) 세검정초교(정문) 주변,4,30,,,2.0,2015.0,서울특별시 종로구청,02-2148-3372,2021-12-01,3000000,서울특별시 종로구,서울,어린이
99,682,10797,26,서울특별시,종로구,구도,23-J9-9번,세검정로9길,3.0,서울특별시 종로구 세검정로9길 19,서울특별시 종로구 신영동 222,37.603958,126.96111974549999,(어린이 23) 세검정초교(후문) 주변,4,20,,,2.0,2015.0,서울특별시 종로구청,02-2148-3372,2021-12-01,3000000,서울특별시 종로구,서울,어린이
100,683,10798,27,서울특별시,종로구,구도,C1-9번,사직로9길,3.0,서울특별시 종로구 사직로9길 16-1,서울특별시 종로구 사직동 1-43,37.57708069,126.9679376577,(어린이 24) 매동초교(정문) 주변,4,30,,,2.0,2015.0,서울특별시 종로구청,02-2148-3372,2021-12-01,3000000,서울특별시 종로구,서울,어린이
101,684,10799,28,서울특별시,종로구,구도,C1-J1번,필운대로,3.0,서울특별시 종로구 필운대로 9-2,서울특별시 종로구 필운동 108,37.577185,126.9690593949,(어린이 25) 매동초교(필운대로) 주변,4,30,,,2.0,2015.0,서울특별시 종로구청,02-2148-3372,2021-12-01,3000000,서울특별시 종로구,서울,어린이
102,685,10800,29,서울특별시,종로구,구도,28-J28번,성균관로,3.0,서울특별시 종로구 성균관로 74-1,서울특별시 종로구 명륜1가 27-57,37.589195357,126.9973937998,(어린이 26) 혜화초교(명륜파출소) 주변,4,30,,,2.0,2020.0,서울특별시 종로구청,02-2148-3372,2021-12-01,3000000,서울특별시 종로구,서울,어린이
103,686,10801,30,서울특별시,종로구,구도,51-J33-5,창신5길,3.0,서울특별시 종로구 창신5길 77,서울특별시 종로구 창신동 99,37.574767683400005,127.01385361979999,(어린이 27) 창신초교(장난감도서관) 주변,4,20,,,2.0,2015.0,서울특별시 종로구청,02-2148-3372,2021-12-01,3000000,서울특별시 종로구,서울,어린이
104,687,10802,31,서울특별시,종로구,구도,23-33번,자하문로33길,3.0,서울특별시 종로구 자하문로33길 22-1,서울특별시 종로구 청운동 52-4,37.5864375164,126.968635,(어린이 28) 청운초교(후문)  주변,4,30,,,2.0,2015.0,서울특별시 종로구청,02-2148-3372,2021-12-01,3000000,서울특별시 종로구,서울,어린이
105,688,10803,32,서울특별시,종로구,구도,28-J22-14번,율곡로14길,3.0,서울특별시 종로구 율곡로14길 40,서울특별시 종로구 효제동 105-5,37.574291556300004,127.0032042,(어린이 29) 효제초교(율곡로14길) 주변,4,30,,,2.0,2015.0,서울특별시 종로구청,02-2148-3372,2021-12-01,3000000,서울특별시 종로구,서울,어린이
106,690,10805,34,서울특별시,종로구,시도,23-J8번,비봉길,3.0,서울특별시 종로구 비봉길 23,서울특별시 종로구 구기동 151,37.6107364994,126.9563721,(어린이 32) 하비에르국제학교 주변,4,30,,,2.0,2015.0,서울특별시 종로구청,02-2148-3372,2021-12-01,3000000,서울특별시 종로구,서울,어린이
107,691,10806,35,서울특별시,종로구,시도,C1-J1번,필운대로,3.0,서울특별시 종로구 필운대로 87-2,서울특별시 종로구 신교동 2-128,37.5838108039,126.9671421443,(어린이 33) 서울맹학교 주변,4,30,,,2.0,2015.0,서울특별시 종로구청,02-2148-3372,2021-12-01,3000000,서울특별시 종로구,서울,어린이
108,692,10807,36,서울특별시,종로구,시도,C1-8번,사직로8길,3.0,서울특별시 종로구 사직로8길 13,서울특별시 종로구 내자동 169,37.574936,126.970238,(어린이 34) 세종유치원 주변,4,30,,,2.0,2016.0,서울특별시 종로구청,02-2148-3372,2021-12-01,3000000,서울특별시 종로구,서울,어린이
109,693,10808,37,서울특별시,종로구,구도,23-43번,자하문로43길,3.0,서울특별시 종로구 자하문로43길 2,서울특별시 종로구 부암동 384-4,37.598687,126.960875,(어린이 35) 엔젤키즈어린이집  주변,4,50,,,2.0,2016.0,서울특별시 종로구청,02-2148-3372,2021-12-01,3000000,서울특별시 종로구,서울,어린이
110,694,10809,38,서울특별시,종로구,구도,23-J9-6-C번,세검정로6다길,3.0,서울특별시 종로구 세검정로6다길 10,서울특별시 종로구 신영동 105-12,37.601661,126.9627354556,(어린이 36) 부암어린이집 주변,4,30,,,2.0,2016.0,서울특별시 종로구청,02-2148-3372,2021-12-01,3000000,서울특별시 종로구,서울,어린이
111,695,10810,39,서울특별시,종로구,구도,51-65번,종로65길,3.0,서울특별시 종로구 종로65길 10,서울특별시 종로구 숭인동 178-167,37.5748752884,127.0199617207,(어린이 37) 한빛어린이집 주변,4,30,,,2.0,2016.0,서울특별시 종로구청,02-2148-3372,2021-12-01,3000000,서울특별시 종로구,서울,어린이
112,696,10811,40,서울특별시,종로구,시도,C1-J2번,옥인길,3.0,서울특별시 종로구 옥인길 18,서울특별시 종로구 옥인동 149-1,37.580694,126.9675954667,(어린이 38) 누상어린이집 주변,4,20,,,2.0,2016.0,서울특별시 종로구청,02-2148-3372,2021-12-01,3000000,서울특별시 종로구,서울,어린이
113,697,10860,N138,서울특별시,금천구,특별시도,0,시흥대로40길 111-5,3.0,서울특별시 금천구 시흥대로40마길1,서울특별시 금천구 시흥동 산 71-52,37.447218,126.907628,서울특별시 금천구 시흥대로40마길1,4,0,,,2.0,2016.0,금천구청,02-2627-1763,2021-08-03,3170000,서울특별시 금천구,서울,어린이
114,698,10883,N137,서울특별시,금천구,특별시도,0,가산로9길 54,3.0,서울특별시 금천구 가산로9길54 LG전자,서울특별시 금천구 가산동 219-14,37.47598957,126.8896599,서울특별시 금천구 가산로9길54 LG전자,4,0,,,2.0,2016.0,금천구청,02-2627-1763,2021-08-03,3170000,서울특별시 금천구,서울,어린이
115,700,11039,1,서울특별시,종로구,시도,5111-5번,지봉로5길,3.0,서울특별시 종로구 지봉로5길 20,서울특별시 종로구 창신동 82,37.5748684472,127.0150594741,창신초교 후문 주변,4,30,,,2.0,2019.0,서울특별시 종로구청,02-2148-3372,2021-12-01,3000000,서울특별시 종로구,서울,어린이
116,704,11043,5,서울특별시,종로구,시도,C1번,율곡로,3.0,서울특별시 종로구 율곡로 264,서울특별시 종로구 종로6가 210-1,37.5734543935,127.0065578241,(어린이 01) 봄샘어린이유치원 주변,4,50,,,2.0,2014.0,서울특별시 종로구청,02-2148-3372,2021-12-01,3000000,서울특별시 종로구,서울,어린이
117,705,11044,6,서울특별시,종로구,시도,5111-13번,지봉로13길,3.0,서울특별시 종로구 지봉로13길 14,서울특별시 종로구 창신동 산 6-25,37.578948313699996,127.0144675,(어린이 02) 아동회관어린이집 주변,4,30,,,2.0,2014.0,서울특별시 종로구청,02-2148-3372,2021-12-01,3000000,서울특별시 종로구,서울,어린이
118,706,11045,7,서울특별시,종로구,시도,29-J34-5번,낙산5길,3.0,서울특별시 종로구 낙산5길 33,서울특별시 종로구 창신동 23-330,37.5787574116,127.0109477274,(어린이 03) 은행나무어린이집 주변,4,20,,,2.0,2014.0,서울특별시 종로구청,02-2148-3372,2021-12-01,3000000,서울특별시 종로구,서울,어린이
119,707,11046,8,서울특별시,종로구,시도,29-J34번,낙산길,3.0,서울특별시 종로구 낙산길 250,서울특별시 종로구 창신동 7-40,37.5814512555,127.0146228932,(어린이 04) 명신초교(후문) 주변,4,30,,,2.0,2014.0,서울특별시 종로구청,02-2148-3372,2021-12-01,3000000,서울특별시 종로구,서울,어린이
120,708,11047,9,서울특별시,종로구,구도,29-J34번,낙산길,3.0,서울특별시 종로구 낙산길 250,서울특별시 종로구 창신동 7-40,37.5814512555,127.0146229,(어린이 05) 명신초교(정문) 주변,4,30,,,2.0,2014.0,서울특별시 종로구청,02-2148-3372,2021-12-01,3000000,서울특별시 종로구,서울,어린이
121,709,11048,10,서울특별시,종로구,시도,5111-J36번,동망산길,3.0,서울특별시 종로구 동망산길 66-1,서울특별시 종로구 숭인동 26-10,37.579708,127.01713830799999,(어린이 06) 청룡유치원 주변,4,30,,,2.0,2014.0,서울특별시 종로구청,02-2148-3372,2021-12-01,3000000,서울특별시 종로구,서울,어린이
122,710,11049,11,서울특별시,종로구,구도,29-J34-4번,낙산4길,3.0,서울특별시 종로구 낙산4길 24,서울특별시 종로구 동숭동 50-135,37.5791427043,127.007035613,(어린이 07) 동숭어린이집 주변,4,20,,,2.0,2014.0,서울특별시 종로구청,02-2148-3372,2021-12-01,3000000,서울특별시 종로구,서울,어린이
123,711,11050,12,서울특별시,종로구,구도,28-J29-6번,혜화로6길,3.0,서울특별시 종로구 혜화로6길 63,서울특별시 종로구 혜화동 15-139,37.5896553333,127.001478,(어린이 08) 한아름유치원 주변,4,20,,,2.0,2014.0,서울특별시 종로구청,02-2148-3372,2021-12-01,3000000,서울특별시 종로구,서울,어린이
124,712,11051,13,서울특별시,종로구,구도,29-3번,대학로3길,3.0,서울특별시 종로구 대학로3길 9,서울특별시 종로구 연지동 136-25,37.5739848034,127.0013442666,(어린이 09) 연동유치원 주변,4,20,,,2.0,2014.0,서울특별시 종로구청,02-2148-3372,2021-12-01,3000000,서울특별시 종로구,서울,어린이
125,713,11052,14,서울특별시,종로구,시도,28번,창경궁로,3.0,서울특별시 종로구 창경궁로 288,서울특별시 종로구 혜화동 58-2,37.586262,127.002740601,(어린이 10) 혜화성당유치원 주변,4,50,,,2.0,2014.0,서울특별시 종로구청,02-2148-3372,2021-12-01,3000000,서울특별시 종로구,서울,어린이
126,714,11053,15,서울특별시,종로구,시도,27번,삼일대로,3.0,서울특별시 종로구 삼일대로 454,서울특별시 종로구 경운동 2,37.5750618207,126.9874208786,(어린이 11) 서울경운학교 주변,4,30,,,2.0,2014.0,서울특별시 종로구청,02-2148-3372,2021-12-01,3000000,서울특별시 종로구,서울,어린이
127,715,11155,N135,서울특별시,금천구,특별시도,0,독산로50길 60,3.0,서울특별시 금천구 독산로50길60 한울중학교,서울특별시 금천구 시흥동 1000-3,37.462526,126.907659,서울특별시 금천구 독산로50길60 한울중학교,4,0,,,2.0,2016.0,금천구청,02-2627-1763,2021-08-03,3170000,서울특별시 금천구,서울,어린이
128,716,11204,N134,서울특별시,금천구,특별시도,0,시흥대로40길 111-5,3.0,서울특별시 금천구 시흥대로40길93 자연유아원앞,서울특별시 금천구 시흥동 산 71-63,37.44678131,126.9084595,서울특별시 금천구 시흥대로40길93 자연유아원앞,4,0,,,2.0,2015.0,금천구청,02-2627-1763,2021-08-03,3170000,서울특별시 금천구,서울,어린이
129,731,11291,F5626,서울특별시,동작구,특별시도,,현충로,1.0,서울특별시 동작구 현충로,서울특별시 동작구 흑석동 10-5,37.50713,126.966803,명수대현대@102동앞,2,50,,,2.0,2010.0,서울지방경찰청,02-700-5031,2020-05-31,1320000,경찰청,서울,어린이
130,732,11292,F5627,서울특별시,동작구,특별시도,,현충로,2.0,서울특별시 동작구 현충로,서울특별시 동작구 흑석동 114-15,37.509412,126.963001,중앙대입구교차로,2,50,,,2.0,2010.0,서울지방경찰청,02-700-5031,2020-05-31,1320000,경찰청,서울,어린이
131,736,11296,F5631,서울특별시,동대문구,특별시도,,한천로,2.0,서울특별시 동대문구 한천로 425-1,,37.598572999999995,127.06761000000002,쌍용@104동 건너편,2,30,,,2.0,2010.0,서울지방경찰청,02-700-5031,2020-05-31,1320000,경찰청,서울,어린이
132,743,11303,F5641,서울특별시,마포구,특별시도,,월드컵북로,1.0,서울특별시 마포구 월드컵북로 361,,37.577172,126.892349,상암초교교차로,2,50,,,2.0,2010.0,서울지방경찰청,02-700-5031,2020-05-31,1320000,경찰청,서울,어린이
133,745,11305,F5404,서울특별시,동대문구,특별시도,,장안벚꽃로,2.0,서울특별시 동대문구 장안벚꽃로 205,,37.57833,127.076225,은석초교앞,1,40,,,2.0,2009.0,서울지방경찰청,02-700-5031,2020-05-31,1320000,경찰청,서울,어린이
134,753,11313,F5417,서울특별시,서초구,특별시도,,사임당로,1.0,서울특별시 서초구 사임당로,서울특별시 서초구 서초동 1418,37.49105,127.02383300000001,신동아2차@ 5동 앞,1,30,,,2.0,2009.0,서울지방경찰청,02-700-5031,2020-05-31,1320000,경찰청,서울,어린이
135,754,11314,F5419,서울특별시,중랑구,특별시도,,면목로,2.0,서울특별시 중랑구 면목로 429,,37.590293,127.08697,면목초교 건너편,1,50,,,2.0,2009.0,서울지방경찰청,02-700-5031,2020-05-31,1320000,경찰청,서울,어린이
136,760,11420,N133,서울특별시,금천구,특별시도,0,시흥대로40길 42,3.0,서울특별시 금천구 시흥대로40길42 영일빌라앞,서울특별시 금천구 시흥동 1000-146,37.447451,126.906016,서울특별시 금천구 시흥대로40길42 영일빌라앞,4,0,,,2.0,2015.0,금천구청,02-2627-1763,2021-08-03,3170000,서울특별시 금천구,서울,어린이
137,779,12207,336,서울특별시,종로구,구도,5305번,자하문로35길,3.0,서울특별시 종로구 자하문로35길,서울특별시 종로구 청운동 7-4,37.5907534686,126.9663641106,청운공원 3(자하문로35길) 주변,4,30,,,2.0,2021.0,서울특별시 종로구청,02-2148-3372,2021-12-01,3000000,서울특별시 종로구,서울,어린이
138,803,12351,F8549,서울특별시,강북구,특별시도,,인수봉로,1.0,서울특별시 강북구 인수봉로 136,,37.631716,127.013775,혜화여고 건너편,2,30,,,2.0,2016.0,서울지방경찰청,02-700-5031,2020-05-31,1320000,경찰청,서울,어린이
139,804,12352,F8550,서울특별시,강북구,특별시도,,인수봉로,2.0,서울특별시 강북구 인수봉로 269,,37.643063,127.010855,인수초중교앞,2,30,,,2.0,2016.0,서울지방경찰청,02-700-5031,2020-05-31,1320000,경찰청,서울,어린이
140,812,12360,F8558,서울특별시,강남구,특별시도,,역삼로,1.0,서울특별시 강남구 역삼로 314,,37.499876,127.049146,도성초교 건너편,2,40,,,2.0,2016.0,서울지방경찰청,02-700-5031,2020-05-31,1320000,경찰청,서울,어린이
141,817,12365,F8563,서울특별시,도봉구,특별시도,,해등로,2.0,서울특별시 도봉구 해등로 295,,37.657396000000006,127.022962,우성2차 201동앞,2,30,,,2.0,2016.0,서울지방경찰청,02-700-5031,2020-05-31,1320000,경찰청,서울,어린이
142,822,12370,F8143,서울특별시,광진구,특별시도,,뚝섬로,1.0,서울특별시 광진구 뚝섬로 553,,37.534411,127.07163700000001,동자초교앞,2,30,,,2.0,2015.0,서울지방경찰청,02-700-5031,2020-05-31,1320000,경찰청,서울,어린이
143,830,12378,F8181,서울특별시,강동구,특별시도,,양재대로,1.0,서울특별시 강동구 양재대로,서울특별시 강동구 고덕동 487-15,37.556583,127.144694,명덕초교앞,2,40,,,2.0,2015.0,서울지방경찰청,02-700-5031,2020-05-31,1320000,경찰청,서울,어린이
144,831,12379,F8182,서울특별시,강동구,특별시도,,양재대로,2.0,서울특별시 강동구 양재대로,서울특별시 강동구 고덕동 469,37.556543,127.144544,강동롯데캐슬퍼스트@앞,2,40,,,2.0,2015.0,서울지방경찰청,02-700-5031,2020-05-31,1320000,경찰청,서울,어린이
145,832,12380,F8261,서울특별시,동대문구,특별시도,,겸재로,1.0,서울특별시 동대문구 겸재로 21,,37.584401,127.069166,휘경공고앞,2,30,,,2.0,2015.0,서울지방경찰청,02-700-5031,2020-05-31,1320000,경찰청,서울,어린이
146,851,12404,F7685,서울특별시,관악구,특별시도,,보라매로,2.0,서울특별시 관악구 보라매로,서울특별시 관악구 봉천동 727-8,37.4922,126.926732,SKT보라매사옥앞,2,50,,,2.0,2014.0,서울지방경찰청,02-700-5031,2020-05-31,1320000,경찰청,서울,어린이
147,857,12410,F7691,서울특별시,강북구,특별시도,,솔샘로,2.0,서울특별시 강북구 솔샘로 184,,37.620090999999995,127.01221100000001,솔샘문화정보센터 건너편,2,30,,,2.0,2014.0,서울지방경찰청,02-700-5031,2020-05-31,1320000,경찰청,서울,어린이
148,870,12431,9,서울특별시,은평구,구도,없음,연서로,3.0,서울특별시 은평구 연서로107,서울특별시 은평구 구산동 222,37.609032,126.915513,세화아파트(예일여고주변),4,30,,,2.0,,서울특별시 은평구청,02-351-7804,2021-09-01,3110000,서울특별시 은평구,서울,어린이
149,889,12488,4,서울특별시,은평구,구도,504번,증산서길,3.0,서울특별시 은평구 증산서길63,서울특별시 은평구 증산동209-17,37.582434,126.905371,증산초교 정문 앞,4,30,,,2.0,,서울특별시 은평구청,02-351-7804,2021-09-01,3110000,서울특별시 은평구,서울,어린이
150,908,12635,G0007,서울특별시,관악구,특별시도,,문성로,2.0,서울특별시 관악구 문성로 214,,37.479167,126.927369,새명문유치원앞,2,30,,,2.0,2017.0,서울지방경찰청,02-700-5031,2020-05-31,1320000,경찰청,서울,어린이
151,913,12876,F7450,서울특별시,서초구,특별시도,,태봉로,1.0,서울특별시 서초구 태봉로,서울특별시 서초구 우면동 718,37.462802,127.02326299999999,서초네이처힐504동앞,2,50,,,2.0,2014.0,서울지방경찰청,02-700-5031,2020-05-31,1320000,경찰청,서울,어린이
152,914,12877,F7451,서울특별시,서초구,특별시도,,태봉로,2.0,서울특별시 서초구 태봉로,서울특별시 서초구 우면동 714,37.464884000000005,127.025194,영동중학교앞,2,50,,,2.0,2014.0,서울지방경찰청,02-700-5031,2020-05-31,1320000,경찰청,서울,어린이
153,917,12880,F7454,서울특별시,광진구,특별시도,,구의강변로,1.0,서울특별시 광진구 구의강변로 84,,37.537423,127.09336599999999,세양@앞,2,30,,,2.0,2014.0,서울지방경찰청,02-700-5031,2020-05-31,1320000,경찰청,서울,어린이
154,918,12881,F7536,서울특별시,성북구,특별시도,,삼양로,2.0,서울특별시 성북구 삼양로 75,,37.609888,127.022593,미아초교앞,2,50,,,2.0,2014.0,서울지방경찰청,02-700-5031,2020-05-31,1320000,경찰청,서울,어린이
155,924,12887,F7673,서울특별시,성북구,특별시도,,동소문로,1.0,서울특별시 성북구 동소문로 186,,37.598434999999995,127.02188000000001,성북성심병원건너편,1,50,,,2.0,2014.0,서울지방경찰청,02-700-5031,2020-05-31,1320000,경찰청,서울,어린이
156,988,12951,F6628,서울특별시,강북구,특별시도,,삼양로,1.0,서울특별시 강북구 삼양로,서울특별시 강북구 미아동 637-44,37.614397,127.02226399999999,래미안트리베라1차@ 건너편,2,50,,,2.0,2011.0,서울지방경찰청,02-700-5031,2020-05-31,1320000,경찰청,서울,어린이
157,989,12952,F6629,서울특별시,성북구,특별시도,,아리랑로,2.0,서울특별시 성북구 아리랑로 68,,37.598620000000004,127.01423100000001,돈암코오롱하늘채앞,2,50,,,2.0,2011.0,서울지방경찰청,02-700-5031,2020-05-31,1320000,경찰청,서울,어린이
158,990,12953,F6630,서울특별시,양천구,특별시도,,목동로,1.0,서울특별시 양천구 목동로 31,,37.512113,126.870775,갈산초교 정문 건너편,2,50,,,2.0,2011.0,서울지방경찰청,02-700-5031,2020-05-31,1320000,경찰청,서울,어린이
159,992,12955,F5401,서울특별시,강동구,특별시도,,성안로,1.0,서울특별시 강동구 성안로 200,,37.541057,127.13775600000001,천동초교앞 삼거리,2,30,,,2.0,2009.0,서울지방경찰청,02-700-5031,2020-05-31,1320000,경찰청,서울,어린이
160,1001,13203,F9361,서울특별시,강남구,특별시도,,역삼로,1.0,서울특별시 강남구 역삼로 8길,,37.492599,127.034151,역삼초교입구,2,40,,,2.0,2016.0,서울지방경찰청,02-700-5031,2020-05-31,1320000,경찰청,서울,어린이
161,1002,13204,F9362,서울특별시,강남구,특별시도,,선릉로,2.0,서울특별시 강남구 선릉로 103,,37.486549,127.056731,서울개일초교 건너편,2,30,,,2.0,2016.0,서울지방경찰청,02-700-5031,2020-05-31,1320000,경찰청,서울,어린이
162,1003,13205,F9363,서울특별시,강남구,특별시도,,자곡로,2.0,서울특별시 강남구 자곡로 55,,37.467869,127.09373000000001,세명초교 남측,2,30,,,2.0,2016.0,서울지방경찰청,02-700-5031,2020-05-31,1320000,경찰청,서울,어린이
163,1004,13206,F9364,서울특별시,강남구,특별시도,,밤고개로,1.0,서울특별시 강남구 밤고개로 23길,,37.474127,127.10908799999999,율현초교 앞,1,30,,,2.0,2016.0,서울지방경찰청,02-700-5031,2020-05-31,1320000,경찰청,서울,어린이
164,1063,14359,N122,서울특별시,금천구,특별시도,0,독산로 16,3.0,서울특별시 금천구 독산로16 곰마트,서울특별시 금천구 시흥동 1000-137,37.448931,126.904735,서울특별시 금천구 독산로 16 곰마트,4,0,,,2.0,2015.0,금천구청,02-2627-1763,2021-08-03,3170000,서울특별시 금천구,서울,어린이
165,1069,14365,N128,서울특별시,금천구,특별시도,0,범안로 1256,3.0,서울특별시 금천구 범안로1256 일공공일안경점,서울특별시 금천구 독산동 1081-16,37.466429,126.901711,서울특별시 금천구 범안로1256 일공공일안경점,4,0,,,2.0,2015.0,금천구청,02-2627-1763,2021-08-03,3170000,서울특별시 금천구,서울,어린이
166,1077,14373,N105,서울특별시,금천구,특별시도,0,범안로 1236,3.0,서울특별시 금천구 범안로1236 말미사거리부근,서울특별시 금천구 독산동 1081-14,37.466434,126.899108,서울특별시 금천구 범안로1236 말미사거리부근,4,0,,,2.0,2015.0,금천구청,02-2627-1763,2021-08-03,3170000,서울특별시 금천구,서울,어린이
167,1078,14374,N106,서울특별시,금천구,특별시도,0,문성로 48,3.0,서울특별시 금천구 문성로48 동아연립,서울특별시 금천구 독산동 894,37.4769568,126.9092452,서울특별시 금천구 문성로48 동아연립,4,0,,,2.0,2016.0,금천구청,02-2627-1763,2021-08-03,3170000,서울특별시 금천구,서울,어린이
168,1156,15581,주정차단속-085,서울특별시,마포구,구도,169,월드컵로36길,3.0,서울특별시 마포구 월드컵로36길34,,37.56697719,126.9050873,성원초등학교 앞,4,0,,,2.0,2010.0,마포구청,02-3153-9655,2020-10-29,3130000,서울특별시 마포구,서울,어린이
169,1157,15582,주정차단속-086,서울특별시,마포구,구도,167,월드컵북로38길,3.0,서울특별시 마포구 월드컵북로38길26,,37.57110397,126.9053628,신북초등학교,4,0,,,2.0,2010.0,마포구청,02-3153-9655,2020-10-29,3130000,서울특별시 마포구,서울,어린이
170,1166,15591,주정차단속-074,서울특별시,마포구,구도,171,성미산로,3.0,서울특별시 마포구 성미산로 111,,37.56350983,126.9191674,홍대부속유치원 앞,4,0,,,2.0,2004.0,마포구청,02-3153-9655,2020-10-29,3130000,서울특별시 마포구,서울,어린이
171,1168,15593,주정차단속-076,서울특별시,마포구,구도,171,성미산로,3.0,서울특별시 마포구 성미산로38,,37.55862516,126.9123503,성서초교(성서교회),4,0,,,2.0,2008.0,마포구청,02-3153-9655,2020-10-29,3130000,서울특별시 마포구,서울,어린이
172,1251,16240,P0056,서울특별시,성북구,구도,0,안암로,3.0,서울특별시 성북구 안암로 99,서울특별시 성북구 안암동5가 40-10,37.58487973,127.0312346,우신향병원,4,30,,,2.0,2018.0,성북구청,02-2241-3515,2020-09-23,3070000,서울특별시 성북구,서울,어린이
173,1326,16398,F5394,서울특별시,동작구,특별시도,,장승배기로,2.0,서울특별시 동작구 장승배기로,서울특별시 동작구 상도동 208-5,37.49962,126.943091,신상도초교 건너편,2,30,,,2.0,2009.0,서울지방경찰청,02-700-5031,2020-05-31,1320000,경찰청,서울,어린이
174,1327,16399,F5395,서울특별시,강남구,특별시도,,선릉로,2.0,서울특별시 강남구 선릉로 209,,37.493178,127.05416399999999,대도초교앞,2,50,,,2.0,2009.0,서울지방경찰청,02-700-5031,2020-05-31,1320000,경찰청,서울,어린이
175,1328,16400,F5396,서울특별시,강북구,특별시도,,한천로,2.0,서울특별시 강북구 한천로 975,,37.636544,127.03191499999998,수송초교 건너편,2,30,,,2.0,2009.0,서울지방경찰청,02-700-5031,2020-05-31,1320000,경찰청,서울,어린이
176,1330,16441,N145,서울특별시,금천구,특별시도,0,시흥대로79길,3.0,서울특별시 금천구 도하어린이공원,서울특별시 금천구 독산동 1152-6,37.45807499,126.896886,서울특별시 금천구 시흥대로 도하어린이공원,4,0,,,2.0,2019.0,금천구청,02-2627-1763,2021-08-03,3170000,서울특별시 금천구,서울,어린이
177,1333,16444,N148,서울특별시,금천구,특별시도,0,가산로 99,3.0,서울특별시 금천구 가산로 가산테라타워 교차로 앞,서울특별시 금천구 가산동 152-27,37.47653560000001,126.8906539,서울특별시 금천구 가산로 가산테라타워 교차로 앞,4,0,,,2.0,2020.0,금천구청,02-2627-1763,2021-08-03,3170000,서울특별시 금천구,서울,어린이
178,1334,16445,N149,서울특별시,금천구,특별시도,0,벚꽃로38길 29,3.0,서울특별시 금천구 벚꽃로 먹거리촌 앞 회전교차로,서울특별시 금천구 가산동 42-5,37.48232335,126.8846235,서울특별시 금천구 벚꽃로 먹거리촌 앞 회전교차로,4,0,,,2.0,2020.0,금천구청,02-2627-1763,2021-08-03,3170000,서울특별시 금천구,서울,어린이
179,1340,16451,N155,서울특별시,금천구,특별시도,0,시흥대로151길 45,3.0,서울특별시 금천구 시흥대로 덕산아파트상가 앞 사거리,서울특별시 금천구 가산동 148-1,37.47705419,126.8962169,서울특별시 금천구 시흥대로 덕산아파트상가 앞 사거리,4,0,,,2.0,2020.0,금천구청,02-2627-1763,2021-08-03,3170000,서울특별시 금천구,서울,어린이
180,1341,16452,N156,서울특별시,금천구,특별시도,0,독산로 87,3.0,서울특별시 금천구 독산로 시흥초등학교 앞 삼거리,서울특별시 금천구 시흥동 841-5,37.45514961,126.9057636,서울특별시 금천구 독산로 시흥초등학교 앞 삼거리,4,0,,,2.0,2020.0,금천구청,02-2627-1763,2021-08-03,3170000,서울특별시 금천구,서울,어린이
181,1348,16619,주정차단속-040,서울특별시,마포구,구도,147,홍익로,3.0,서울특별시 마포구 홍익로11,,37.55350429999999,126.9232886,서교초교(이철헤어),4,0,,,2.0,2007.0,마포구청,02-3153-9655,2020-10-29,3130000,서울특별시 마포구,서울,어린이
182,1350,16621,주정차단속-042,서울특별시,마포구,구도,147,홍익로,3.0,서울특별시 마포구 홍익로1,,37.55284163,126.924009,서교초교(홍대앞삼거리),4,0,,,2.0,2007.0,마포구청,02-3153-9655,2020-10-29,3130000,서울특별시 마포구,서울,어린이
183,1420,17473,주정차단속-001,서울특별시,마포구,구도,107,만리재옛길,3.0,서울특별시 마포구 만리재옛길 13,,37.54580443,126.9548225,공덕초등학교 주변(새마을금고 앞),4,0,,,2.0,2016.0,마포구청,02-3153-9655,2020-10-29,3130000,서울특별시 마포구,서울,어린이
184,1422,17475,주정차단속-003,서울특별시,마포구,구도,101,굴레방로,3.0,서울특별시 마포구 굴레방로11,,37.55502024,126.9558943,아현초등학교 앞,4,0,,,2.0,2010.0,마포구청,02-3153-9655,2020-10-29,3130000,서울특별시 마포구,서울,어린이
185,1429,17482,주정차단속-010,서울특별시,마포구,구도,685,마포대로4나길,3.0,서울특별시 마포구 마포대로4나길 28,,37.53799783,126.9454858,진선미 어린이집 앞,4,0,,,2.0,2018.0,마포구청,02-3153-9655,2020-10-29,3130000,서울특별시 마포구,서울,어린이
186,1433,17486,주정차단속-014,서울특별시,마포구,구도,없음,마포대로,3.0,서울특별시 마포구 토정로37길38,,37.54205285,126.9466325,염리초교(트라팰리스),4,0,,,2.0,2008.0,마포구청,02-3153-9655,2020-10-29,3130000,서울특별시 마포구,서울,어린이
187,1440,17493,주정차단속-021,서울특별시,마포구,구도,127,큰우물로,3.0,서울특별시 마포구 큰우물로 66,,37.54146479,126.9453067,염리초교(도화소공원 앞),4,0,,,2.0,2005.0,마포구청,02-3153-9655,2020-10-29,3130000,서울특별시 마포구,서울,어린이
188,1443,17496,주정차단속-025,서울특별시,마포구,구도,758,백범로1길,3.0,서울특별시 마포구 백범로1길 56,,37.55491917,126.9392942,창천초 앞,4,0,,,2.0,2018.0,마포구청,02-3153-9655,2020-10-29,3130000,서울특별시 마포구,서울,어린이
189,1448,17532,F5362,서울특별시,강서구,특별시도,,등촌로,2.0,서울특별시 강서구 등촌로,서울특별시 강서구 등촌동 561-1,37.541533,126.863225,등마초교 입구,2,50,,,2.0,2009.0,서울지방경찰청,02-700-5031,2020-05-31,1320000,경찰청,서울,어린이
190,1449,17533,F5363,서울특별시,양천구,특별시도,,등촌로,1.0,서울특별시 양천구 등촌로,서울특별시 양천구 목동 709-1,37.54265,126.863041,등마초교 건너편,2,50,,,2.0,2009.0,서울지방경찰청,02-700-5031,2020-05-31,1320000,경찰청,서울,어린이
191,1460,17545,F4429,서울특별시,금천구,특별시도,,금하로,1.0,서울특별시 금천구 금하로 783,,37.449949,126.916522,동일여고 앞,1,30,,,2.0,2008.0,서울지방경찰청,02-700-5031,2020-05-31,1320000,경찰청,서울,어린이
192,1475,17560,F4742,서울특별시,동대문구,특별시도,,한천로,1.0,서울특별시 동대문구 한천로 300,,37.587731,127.06803300000001,동일스위트리버@앞,2,50,,,2.0,2009.0,서울지방경찰청,02-700-5031,2020-05-31,1320000,경찰청,서울,어린이
193,1484,17569,F4383,서울특별시,용산구,특별시도,,효창원로,2.0,서울특별시 용산구 효창원로 137,,37.540307,126.961688,금양초교앞,2,30,,,2.0,2008.0,서울지방경찰청,02-700-5031,2020-05-31,1320000,경찰청,서울,어린이
194,1537,17622,F5977,서울특별시,도봉구,특별시도,,노해로,2.0,서울특별시 도봉구 노해로,서울특별시 도봉구 창동 339,37.651574,127.041826,창원초교교차로,2,50,,,2.0,2010.0,서울지방경찰청,02-700-5031,2020-05-31,1320000,경찰청,서울,어린이
195,1542,17627,F5983,서울특별시,관악구,특별시도,,신림로,1.0,서울특별시 관악구 신림로 114,,37.471013,126.93653799999998,신성초교앞R,2,50,,,2.0,2010.0,서울지방경찰청,02-700-5031,2020-05-31,1320000,경찰청,서울,어린이
196,1545,17630,F5986,서울특별시,양천구,특별시도,,목동남로,2.0,서울특별시 양천구 목동남로 93,,37.511238,126.869883,갈산초교 후문앞,2,40,,,2.0,2010.0,서울지방경찰청,02-700-5031,2020-05-31,1320000,경찰청,서울,어린이
197,1546,17631,F5987,서울특별시,성북구,특별시도,,정릉로,2.0,서울특별시 성북구 정릉로 272,,37.603307,127.013608,아리랑고개입구R,2,50,,,2.0,2010.0,서울지방경찰청,02-700-5031,2020-05-31,1320000,경찰청,서울,어린이
198,1549,17634,F6145,서울특별시,서초구,특별시도,,서운로,1.0,서울특별시 서초구 서운로 178,,37.499249,127.02311999999999,서초초교앞,2,30,,,2.0,2011.0,서울지방경찰청,02-700-5031,2020-05-31,1320000,경찰청,서울,어린이
199,1671,18229,F5922,서울특별시,은평구,특별시도,,통일로,2.0,서울특별시 은평구 통일로 603,,37.600555,126.935782,녹번역삼거리,2,50,,,2.0,2010.0,서울지방경찰청,02-700-5031,2020-05-31,1320000,경찰청,서울,어린이
200,1703,18341,F5876,서울특별시,구로구,특별시도,,공원로,2.0,서울특별시 구로구 공원로,서울특별시 구로구 구로동 50,37.504006,126.8874,미래초교앞교차로,2,50,,,2.0,2010.0,서울지방경찰청,02-700-5031,2020-05-31,1320000,경찰청,서울,어린이
201,1720,18375,F5865,서울특별시,양천구,특별시도,,오목로,1.0,서울특별시 양천구 오목로,서울특별시 양천구 신월동 519-1,37.521493,126.840272,강서초교사거리,2,30,,,2.0,2010.0,서울지방경찰청,02-700-5031,2020-05-31,1320000,경찰청,서울,어린이
202,1721,18376,F5866,서울특별시,강서구,특별시도,,방화대로,1.0,서울특별시 강서구 방화대로 319,,37.569274,126.81663600000002,송화초등학교앞,2,50,,,2.0,2010.0,서울지방경찰청,02-700-5031,2020-05-31,1320000,경찰청,서울,어린이
203,1762,19070,44,서울특별시,광진구,구도,없음,영화사로,3.0,서울특별시 영화사로 95,서울특별시 구의동 17-1,37.554629,127.096634,구의동 금성빌라 앞,4,0,,,2.0,2020.0,서울특별시 광진구청,02-450-1486,2021-06-23,3040000,서울특별시 광진구,서울,어린이
204,1763,19071,45,서울특별시,광진구,특별시도,405,능동로,3.0,서울특별시 능동로 18,서울특별시 자양동 855,37.533363,127.068534,이튼타워리버3차 앞,4,0,,,2.0,2020.0,서울특별시 광진구청,02-450-1487,2021-06-23,3040000,서울특별시 광진구,서울,어린이
205,1791,19132,4,서울특별시,광진구,특별시도,3001,광나루로,3.0,서울특별시 광진구 광나루로 369,서울특별시 광진구 군자동 503,37.547979,127.071019,두산위브 앞,4,0,,,2.0,2016.0,서울특별시 광진구청,02-450-1485,2021-06-23,3040000,서울특별시 광진구,서울,어린이
206,1792,19133,36,서울특별시,광진구,특별시도,4805,면목로,3.0,서울특별시 광진구 면목로 127,서울특별시 광진구 중곡동 231-2,37.564843,127.080667,신성그랜드타워 앞,4,0,,,2.0,2018.0,서울특별시 광진구청,02-450-1485,2021-06-23,3040000,서울특별시 광진구,서울,어린이
207,1793,19134,37,서울특별시,광진구,특별시도,3111,뚝섬로,3.0,서울특별시 광진구 뚝섬로 666,서울특별시 광진구 자양동 662-2,37.531557,127.083472,성자초등학교 옆,4,0,,,2.0,2018.0,서울특별시 광진구청,02-450-1485,2021-06-23,3040000,서울특별시 광진구,서울,어린이
